[{"title":"꼼지락","lat":35.97585609,"lng":126.9440082},
{"title":"오렌지키즈파크","lat":35.15998641,"lng":126.8096599},
{"title":"트리아이 키즈카페","lat":34.79495071,"lng":126.3876595},
{"title":"메가점프 키즈카페","lat":35.16340199,"lng":126.813314},
{"title":"하이주 광주점","lat":35.14872374,"lng":126.915178},
{"title":"리틀빅 키즈카페","lat":35.37094948,"lng":129.1781765},
{"title":"모넬로 키즈카페","lat":35.18912375,"lng":126.8229375},
{"title":"헤이키즈","lat":35.15114457,"lng":126.7927411},
{"title":"슈퍼몽테마파크","lat":35.19124184,"lng":126.8194952},
{"title":"꿈꾸는 나무 키즈카페","lat":35.14670144,"lng":126.8473318},
{"title":"판타지키즈파크&서커스","lat":35.14678974,"lng":126.840529},
{"title":"월드킹","lat":35.12719191,"lng":126.8790939},
{"title":"헬로밀가루 광주점","lat":35.97465747,"lng":126.9449915},
{"title":"맘앤베베","lat":35.19102858,"lng":126.8248111},
{"title":"엘리엘리 수완점","lat":35.18982017,"lng":126.8165887},
{"title":"아이플러스키즈카페","lat":35.14659765,"lng":126.8842675},
{"title":"메르시마망 키즈카페","lat":35.18753527,"lng":126.8972572},
{"title":"월드킹","lat":35.1245183,"lng":126.8979482},
{"title":"키즈다쿵 첨단점","lat":35.97590184,"lng":126.9465962},
{"title":"쿠키만들기 쿠키빈","lat":35.14868754,"lng":126.9152567},
{"title":"차카차카패밀리카페","lat":35.20908541,"lng":126.8802575},
{"title":"월드킹 운암점","lat":35.1786617,"lng":126.871931},
{"title":"키즈파크","lat":35.16029735,"lng":126.8801506},
{"title":"토끼와거북이키즈카페","lat":35.19016065,"lng":126.8987175},
{"title":"베베엔젤 베이비카페","lat":35.19016082,"lng":126.8165395},
{"title":"월드킹 수완점","lat":35.19047926,"lng":126.8183567},
{"title":"리틀펀트키즈파크","lat":35.20454191,"lng":126.8972082},
{"title":"스카이방방랜드키즈카페","lat":35.12582491,"lng":126.8796577},
{"title":"TS키즈카페","lat":35.10296669,"lng":126.8890401},
{"title":"월드킹 두암점","lat":35.16248609,"lng":126.9349615},
{"title":"오리날다","lat":37.19955786,"lng":127.027449},
{"title":"킹콩어드벤처파크","lat":35.19108122,"lng":126.8244202},
{"title":"헬로밀가루 베이비 광주점","lat":35.97465747,"lng":126.9449915},
{"title":"상상노리 홈플러스동광주점","lat":35.17953403,"lng":126.9304835},
{"title":"플레이원","lat":35.21432662,"lng":126.8520681},
{"title":"점핑블럭키즈카페","lat":35.10273734,"lng":126.8983274},
{"title":"바니바니","lat":35.92480844,"lng":128.9501416},
{"title":"점핑하이","lat":35.12260566,"lng":126.9109984},
{"title":"블럭스쿨 상무점","lat":35.15426478,"lng":126.8458378},
{"title":"플레이타임  NC웨이브 충장점","lat":35.14876491,"lng":126.9130993},
{"title":"점프노리 광주금호점","lat":35.14123092,"lng":126.8581818},
{"title":"점프노리 신창점","lat":35.19538394,"lng":126.8378412},
{"title":"닥터밸런스 롯데아울렛 수완점","lat":35.1896594,"lng":126.8200004},
{"title":"블럭버스 유스퀘어점","lat":35.16029735,"lng":126.8801506},
{"title":"점프노리 효천점","lat":35.10261473,"lng":126.8886971},
{"title":"점핑고고","lat":35.97575735,"lng":126.9433247},
{"title":"플레이랜드 수완점","lat":36.26440553,"lng":127.3357948},
{"title":"꿈꾸는나무키즈까페","lat":35.14670144,"lng":126.8473318},
{"title":"슬라임쥬쥬","lat":35.97485472,"lng":126.9461868},
{"title":"방방월드","lat":35.12411988,"lng":126.910037},
{"title":"챔피언 홈플러스 광주하남점","lat":35.17727353,"lng":126.8058561},
{"title":"포인포키즈카페 NC백화점광주역점","lat":35.18970089,"lng":128.0684137},
{"title":"꼬꼬팡팡&블럭","lat":35.17527267,"lng":126.8108511},
{"title":"로보키즈","lat":35.18006373,"lng":126.8879206},
{"title":"트램폴린파크매곡점","lat":35.18758754,"lng":126.8938929},
{"title":"아이키즈카페첨단점","lat":35.21645826,"lng":126.8503613},
{"title":"키즈카페","lat":35.16029735,"lng":126.8801506},
{"title":"신화24시키즈카페","lat":35.20373455,"lng":126.8144038},
{"title":"블럭스쿨 일곡점","lat":35.20573904,"lng":126.8988738},
{"title":"블럭스쿨 선운점","lat":35.51274342,"lng":129.3107802},
{"title":"플레이랜드 봉선점","lat":35.12158408,"lng":126.916277},
{"title":"레이싱키즈카페","lat":35.20908541,"lng":126.8802575},
{"title":"엔젤팡팡","lat":35.18751113,"lng":126.8658354},
{"title":"블럭파티플러스 신창점","lat":35.18949744,"lng":126.8359671},
{"title":"점프노리 주월점","lat":35.13335371,"lng":126.9060406},
{"title":"트램폴린파크 광주신창점","lat":35.19092888,"lng":126.8389423},
{"title":"플레이랜드 첨단점","lat":35.21877359,"lng":126.8424057},
{"title":"블럭버스 충장점","lat":35.14876491,"lng":126.9130993},
{"title":"렛츠블럭","lat":35.12479209,"lng":126.9085395},
{"title":"점핑플레이","lat":35.12544507,"lng":126.8783429},
{"title":"블럭스쿨 수완 신완점","lat":35.19969289,"lng":126.8136001},
{"title":"블럭펀","lat":35.21150348,"lng":126.8602819},
{"title":"블럭스쿨 산월점","lat":35.21230306,"lng":126.8484036},
{"title":"점프노리 광주학동점","lat":35.12989943,"lng":126.929344},
{"title":"점핑랜드","lat":35.12230383,"lng":126.8951158},
{"title":"몽키블럭&마벨아트슬라임","lat":35.21809143,"lng":126.8360889},
{"title":"블럭버스 롯데마트 광주 월드컵점","lat":35.13334925,"lng":126.8778462},
{"title":"요요플레이방","lat":35.17858374,"lng":126.8245241},
{"title":"씽크블럭랜드","lat":35.11245007,"lng":126.9000037},
{"title":"키즈파크케어센터","lat":35.12354125,"lng":126.8670544},
{"title":"에듀블럭 양산점","lat":35.21159375,"lng":126.8701927},
{"title":"블럭노리","lat":37.13927164,"lng":128.2394557},
{"title":"방방월드 유촌점","lat":35.16461396,"lng":126.8600245},
{"title":"블럭조아","lat":35.11830592,"lng":126.9066779},
{"title":"블럭모아","lat":35.21347515,"lng":126.882397},
{"title":"블럭스쿨 동천점","lat":37.34323316,"lng":127.0636633},
{"title":"폴짝폴짝","lat":35.20304309,"lng":126.6859329},
{"title":"블럭스쿨 첨단2지구점","lat":35.97460413,"lng":126.9454201},
{"title":"블럭슈타인","lat":35.18482237,"lng":126.8363259},
{"title":"플레이랜드 북구점","lat":35.19747749,"lng":126.875951},
{"title":"블럭스쿨 오치점","lat":35.18920459,"lng":126.9026088},
{"title":"플레이앤커피","lat":35.17364478,"lng":126.8183721},
{"title":"미디어놀이터","lat":35.14812506,"lng":126.9085331},
{"title":"헬로밀가루 본사","lat":35.97465747,"lng":126.9449915},
{"title":"블럭월드","lat":35.18536018,"lng":126.9227284},
{"title":"블럭나라","lat":35.13786952,"lng":126.8702385},
{"title":"블럭월드","lat":35.19624884,"lng":126.8377019},
{"title":"블럭스쿨 풍암점","lat":35.12350153,"lng":126.8777438},
{"title":"점핑존","lat":35.20956622,"lng":126.8682834},
{"title":"블럭인양산점","lat":35.20956613,"lng":126.8771959},
{"title":"플레이타임 동광주점","lat":35.17953403,"lng":126.9304835},
{"title":"롤리폴리 광주 운남점","lat":35.1773733,"lng":126.8151693},
{"title":"하이레고 그리고 커피","lat":35.14067021,"lng":126.8797276},
{"title":"플레이타임롯데상무점","lat":35.15182797,"lng":126.8524492},
{"title":"블록피아","lat":35.18972904,"lng":126.8936461},
{"title":"케이제이와이블럭엔가베스쿨","lat":35.15917784,"lng":126.8633832},
{"title":"규블럭수학교습소","lat":35.12876369,"lng":126.7929915},
{"title":"블럭스쿨문흥점","lat":35.1828446,"lng":126.9224312},
{"title":"블럭업에듀","lat":35.17311042,"lng":126.8198722},
{"title":"블럭나라","lat":34.94468957,"lng":128.0760713},
{"title":"플레이포인트","lat":35.20780795,"lng":126.8686785},
{"title":"국민차일드","lat":35.16529407,"lng":126.8985113},
{"title":"로봇홈스쿨","lat":35.1870694,"lng":126.927244},
{"title":"동글동글","lat":35.2141203,"lng":126.8496638},
{"title":"코코몽키즈랜드 NC백화점 광주역점","lat":35.18970089,"lng":128.0684137},
{"title":"릴리펏 광주수완점","lat":35.20743266,"lng":126.8238292},
{"title":"플레이방신가점","lat":35.18558145,"lng":126.8374609},
{"title":"플레이방월곡점","lat":35.17529812,"lng":126.8110356},
{"title":"플레이방운남9점","lat":35.17358523,"lng":126.8159779},
{"title":"눈꽃설향","lat":35.1581882,"lng":126.8635844},
{"title":"다인","lat":35.17269436,"lng":126.8851854},
{"title":"마마지트","lat":35.17954693,"lng":126.8740752},
{"title":"얌얌베이킹","lat":35.18718018,"lng":126.8252802},
{"title":"팝콘슬라임","lat":35.15998641,"lng":126.8096599},
{"title":"광주 어린이교구체험 놀이터","lat":35.14678974,"lng":126.840529},
{"title":"베이비즘 광주첨단지구점","lat":35.97641243,"lng":126.9466258},
{"title":"창의블럭아카데미","lat":35.17311042,"lng":126.8198722},
{"title":"청량산업","lat":35.16291572,"lng":126.8115309}]