[{"title":"문화근린공원","location":"문흥동","lat":35.1849172,"lng":126.9166864},
{"title":"두암제1근린공원","location":"두암동","lat":35.1651036,"lng":126.9376496},
{"title":"첨단체육근린공원","location":"오룡동","lat":35.2205463,"lng":126.858765},
{"title":"일곡제1근린공원","location":"일곡동","lat":35.2079754,"lng":126.8954453},
{"title":"일곡제2근린공원","location":"일곡동","lat":35.2064997,"lng":126.8983947},
{"title":"일곡제3근린공원","location":"일곡동","lat":35.2025932,"lng":126.8962296},
{"title":"첨단2주거1호근린공원","location":"신용동","lat":35.2077934,"lng":126.8613964},
{"title":"첨단2산업2호근린공원","location":"연제동","lat":35.2014475,"lng":126.8636426},
{"title":"첨단2주거3호근린공원","location":"신용동","lat":35.2123642,"lng":126.8575359},
{"title":"우산근린공원","location":"우산동","lat":35.1756255,"lng":126.9263108},
{"title":"본촌근린공원","location":"양산동","lat":35.2025321,"lng":126.8736607},
{"title":"운암제3 근린공원","location":"운암동","lat":35.1802204,"lng":126.8758031},
{"title":"영산강대상근린공원","location":"오룡동","lat":35.2190864,"lng":126.8583302},
{"title":"운암산 근린공원","location":"동림동","lat":35.1838609,"lng":126.8680464},
{"title":"태봉어린이공원","location":"신안동","lat":35.1629176,"lng":126.9030896},
{"title":"미리내어린이공원","location":"중흥동","lat":35.1598855,"lng":126.9081493},
{"title":"운암어린이공원","location":"운암동","lat":35.1739887,"lng":126.8815165},
{"title":"버들어린이공원","location":"운암동","lat":35.1724838,"lng":126.8837449},
{"title":"지우어린이공원","location":"운암동","lat":35.1753429,"lng":126.8837057},
{"title":"신용제1어린이공원","location":"신안동","lat":35.1716172,"lng":126.8982976},
{"title":"효동어린이공원","location":"중흥동","lat":35.1682873,"lng":126.9092391},
{"title":"효죽어린이공원","location":"중흥동","lat":35.1725538,"lng":126.9109512},
{"title":"용흥어린이공원","location":"용봉동","lat":35.1763308,"lng":126.9139155},
{"title":"꿈동산어린이공원","location":"두암동","lat":35.1771361,"lng":126.9331745},
{"title":"무등어린이공원","location":"두암동","lat":35.1773615,"lng":126.9365556},
{"title":"희망어린이공원","location":"두암동","lat":35.1795632,"lng":126.9279029},
{"title":"우리어린이공원","location":"우산동","lat":35.1802224,"lng":126.9212187},
{"title":"하백어린이공원","location":"매곡동","lat":35.1912495,"lng":126.8909254},
{"title":"무진어린이공원","location":"두암동","lat":35.1705937,"lng":126.9358188},
{"title":"부영어린이공원","location":"두암동","lat":35.1685849,"lng":126.9357164},
{"title":"초롱어린이공원","location":"두암동","lat":35.1694497,"lng":126.9383265},
{"title":"평교어린이공원","location":"문흥동","lat":35.1793627,"lng":126.9247938},
{"title":"그린어린이공원","location":"우산동","lat":35.1743275,"lng":126.9245834},
{"title":"둘리어린이공원","location":"두암동","lat":35.1708251,"lng":126.9313478},
{"title":"새싹어린이공원","location":"두암동","lat":35.1741719,"lng":126.9320593},
{"title":"어울림어린이공원","location":"두암동","lat":35.1688205,"lng":126.927779},
{"title":"반룡어린이공원","location":"용봉동","lat":35.1799986,"lng":126.9026336},
{"title":"봉곡어린이공원","location":"용봉동","lat":35.179946,"lng":126.9000072},
{"title":"새봄어린이공원","location":"용봉동","lat":35.1778426,"lng":126.9005515},
{"title":"용주어린이공원","location":"용봉동","lat":35.1821276,"lng":126.9041179},
{"title":"고운어린이공원","location":"오치동","lat":35.1861634,"lng":126.910142},
{"title":"박들어린이공원","location":"오치동","lat":35.1911912,"lng":126.9033484},
{"title":"상오치어린이공원","location":"오치동","lat":35.1884085,"lng":126.9104151},
{"title":"하오치어린이공원","location":"오치동","lat":35.1857983,"lng":126.9073362},
{"title":"샛터어린이공원","location":"오치동","lat":35.1895154,"lng":126.9077179},
{"title":"차돌(독)어린이공원","location":"오치동","lat":35.1890795,"lng":126.9039697},
{"title":"군황어린이공원","location":"두암동","lat":35.1620517,"lng":126.9397288},
{"title":"송학어린이공원","location":"두암동","lat":35.1644242,"lng":126.935629},
{"title":"개나리어린이공원","location":"문흥동","lat":35.1806318,"lng":126.9169975},
{"title":"사랑어린이공원","location":"우산동","lat":35.1784162,"lng":126.9183092},
{"title":"용봉어린이공원","location":"용봉동","lat":35.1823243,"lng":126.9142522},
{"title":"충효어린이공원","location":"우산동","lat":35.1760798,"lng":126.9187112},
{"title":"현대어린이공원","location":"우산동","lat":35.179792,"lng":126.919952},
{"title":"삼정어린이공원","location":"두암동","lat":35.1677221,"lng":126.9377518},
{"title":"장수어린이공원","location":"두암동","lat":35.1619848,"lng":126.9384751},
{"title":"느티나무어린이공원","location":"문흥동","lat":35.1842518,"lng":126.9242891},
{"title":"늘푸른어린이공원","location":"문흥동","lat":35.1877446,"lng":126.927436},
{"title":"동심어린이공원","location":"문흥동","lat":35.1863179,"lng":126.922582},
{"title":"문산어린이공원","location":"문흥동","lat":35.1864689,"lng":126.9261857},
{"title":"바느실어린이공원","location":"문흥동","lat":35.1899895,"lng":126.9239214},
{"title":"소망어린이공원","location":"문흥동","lat":35.1846753,"lng":126.9214515},
{"title":"송정어린이공원","location":"문흥동","lat":35.1907695,"lng":126.9213228},
{"title":"오정어린이공원","location":"오치동","lat":35.1875112,"lng":126.914786},
{"title":"장미어린이공원","location":"문흥동","lat":35.1857752,"lng":126.919437},
{"title":"진달래어린이공원","location":"문흥동","lat":35.1870568,"lng":126.9201194},
{"title":"철쭉어린이공원","location":"문흥동","lat":35.182419,"lng":126.9211151},
{"title":"동산어린이공원","location":"동림동","lat":35.1888034,"lng":126.8646018},
{"title":"산동어린이공원","location":"동림동","lat":35.1917183,"lng":126.865936},
{"title":"푸른어린이공원","location":"동림동","lat":35.1881569,"lng":126.8674754},
{"title":"한마음어린이공원","location":"동림동","lat":35.1882678,"lng":126.8695052},
{"title":"가작어린이공원","location":"삼각동","lat":35.1986277,"lng":126.8994863},
{"title":"당산어린이공원","location":"일곡동","lat":35.2098103,"lng":126.8992014},
{"title":"들샘어린이공원","location":"일곡동","lat":35.2059169,"lng":126.8968829},
{"title":"비둘기어린이공원","location":"삼각동","lat":35.2009824,"lng":126.8973384},
{"title":"삼각어린이공원","location":"삼각동","lat":35.2007347,"lng":126.9013236},
{"title":"서일어린이공원","location":"일곡동","lat":35.2127526,"lng":126.9005148},
{"title":"소소리어린이공원","location":"일곡동","lat":35.2108625,"lng":126.8919265},
{"title":"용수어린이공원","location":"삼각동","lat":35.2001125,"lng":126.895457},
{"title":"월산어린이공원","location":"일곡동","lat":35.2053797,"lng":126.8995643},
{"title":"일곡어린이공원","location":"일곡동","lat":35.2085741,"lng":126.8928274},
{"title":"일동어린이공원","location":"일곡동","lat":35.2067522,"lng":126.8914299},
{"title":"한새어린이공원","location":"일곡동","lat":35.2129687,"lng":126.8971236},
{"title":"신안북어린이공원","location":"신안동","lat":35.1678705,"lng":126.8997494},
{"title":"용봉동어린이공원","location":"용봉동","lat":35.1832391,"lng":126.9026351},
{"title":"용봉동부어린이공원","location":"용봉동","lat":35.1801464,"lng":126.8969721},
{"title":"용봉북어린이공원","location":"용봉동","lat":35.1836928,"lng":126.896518},
{"title":"용봉서부어린이공원","location":"용봉동","lat":35.1774602,"lng":126.8926149},
{"title":"백일홍어린이공원","location":"문흥동","lat":35.1828004,"lng":126.9249758},
{"title":"용봉중앙어린이공원","location":"용봉동","lat":35.1797992,"lng":126.8937886},
{"title":"양산 제1어린이공원","location":"본촌동","lat":35.217929,"lng":126.8797516},
{"title":"양산 제2어린이공원","location":"본촌동","lat":35.2151682,"lng":126.8840511},
{"title":"양산 제3어린이공원","location":"본촌동","lat":35.2123168,"lng":126.8803582},
{"title":"양산 제4어린이공원","location":"양산동","lat":35.2019384,"lng":126.8760848},
{"title":"양산 제5어린이공원","location":"양산동","lat":35.2107348,"lng":126.8822436},
{"title":"양산 제6어린이공원","location":"양산동","lat":35.2094969,"lng":126.8767582},
{"title":"양산 제7어린이공원","location":"양산동","lat":35.2074071,"lng":126.8783718},
{"title":"양산 제8어린이공원","location":"양산동","lat":35.2057965,"lng":126.8745952},
{"title":"신평어린이공원","location":"용두동","lat":35.2106034,"lng":126.8713823},
{"title":"첨단2주거 1호어린이공원","location":"신용동","lat":35.2106345,"lng":126.8582945},
{"title":"첨단2주거 2호어린이공원","location":"신용동","lat":35.2125496,"lng":126.8619682},
{"title":"첨단2주거 3호어린이공원","location":"신용동","lat":35.2106528,"lng":126.8648313},
{"title":"첨단2산업체육공원","location":"연제동","lat":35.1994359,"lng":126.8612305},
{"title":"천변공원","location":"임동","lat":35.1604756,"lng":126.8944059},
{"title":"일곡근린공원","location":"일곡동","lat":35.2118651,"lng":126.8959124},
{"title":"양지소공원","location":"산","lat":35.2047155,"lng":126.8815694},
{"title":"유림소공원","location":"동림동","lat":35.174093,"lng":126.865337},
{"title":"풍향골어린이공원","location":"풍향동","lat":35.163062,"lng":126.928655},
{"title":"신평소공원","location":"용두동","lat":35.210744,"lng":126.871291},
{"title":"송정","location":"소촌동","lat":35.146645,"lng":126.799576},
{"title":"무돌","location":"우산동","lat":35.158309,"lng":126.809359},
{"title":"대덕","location":"우산동","lat":35.155539,"lng":126.814926},
{"title":"꿈꾸는","location":"우산동","lat":35.15495,"lng":126.811526},
{"title":"칙칙폭폭","location":"우산동","lat":35.152618,"lng":126.814668},
{"title":"별빛","location":"우산동","lat":35.152644,"lng":126.811425},
{"title":"자유","location":"우산동","lat":35.1535,"lng":126.809042},
{"title":"용아","location":"소촌동","lat":35.15097,"lng":126.803652},
{"title":"다정한","location":"신촌동","lat":35.150216,"lng":126.806493},
{"title":"하남","location":"하남동","lat":35.191494,"lng":126.794638},
{"title":"월곡","location":"월곡동","lat":35.167675,"lng":126.814802},
{"title":"산정","location":"월곡동","lat":35.167664,"lng":126.806034},
{"title":"안청","location":"안청동","lat":35.21299,"lng":126.803728},
{"title":"산정중앙","location":"산정동","lat":35.168233,"lng":126.804403},
{"title":"다모아","location":"월곡동","lat":35.170823,"lng":126.807205},
{"title":"햇살","location":"월곡동","lat":35.174035,"lng":126.807158},
{"title":"월곡하늘","location":"월곡동","lat":35.167316,"lng":126.810455},
{"title":"월곡솔밭","location":"월곡동","lat":35.168956,"lng":126.81452},
{"title":"빛뫼","location":"비아동","lat":35.22366,"lng":126.819275},
{"title":"꽃밭등","location":"비아동","lat":35.221829,"lng":126.818913},
{"title":"조형","location":"비아동","lat":35.220891,"lng":126.817277},
{"title":"아산","location":"비아동","lat":35.222108,"lng":126.820857},
{"title":"비아","location":"비아동","lat":35.221152,"lng":126.822282},
{"title":"도루메","location":"도산동","lat":35.130474,"lng":126.788838},
{"title":"임방울","location":"도산동","lat":35.128361,"lng":126.7898},
{"title":"도담","location":"월계동","lat":35.209963,"lng":126.834581},
{"title":"우리들","location":"월계동","lat":35.212541,"lng":126.837574},
{"title":"장고분","location":"월계동","lat":35.212878,"lng":126.841022},
{"title":"월전","location":"장록동","lat":35.131661,"lng":126.767931},
{"title":"용동","location":"용동","lat":35.133275,"lng":126.75751},
{"title":"용     동","location":"용동","lat":35.129949,"lng":126.752011},
{"title":"대상","location":"쌍암동","lat":35.219835,"lng":126.847401},
{"title":"무양","location":"월계동","lat":35.21092,"lng":126.839811},
{"title":"쌍암","location":"쌍암동","lat":35.222207,"lng":126.844201},
{"title":"응암","location":"월계동","lat":35.218387,"lng":126.833388},
{"title":"어등","location":"우산동","lat":35.164821,"lng":126.807871},
{"title":"수랑","location":"우산동","lat":35.159198,"lng":126.804868},
{"title":"서작","location":"우산동","lat":35.159125,"lng":126.811006},
{"title":"풍영","location":"신창동","lat":35.181894,"lng":126.837817},
{"title":"평동역","location":"월전동","lat":35.12222,"lng":126.763486},
{"title":"원두","location":"월전동","lat":35.120772,"lng":126.776405},
{"title":"웃음꽃","location":"운남동","lat":35.178146,"lng":126.818957},
{"title":"목련","location":"운남동","lat":35.17611,"lng":126.81914},
{"title":"꿈사랑","location":"운남동","lat":35.177823,"lng":126.822172},
{"title":"뭉게뭉게","location":"운남동","lat":35.177751,"lng":126.826501},
{"title":"여울빛","location":"운남동","lat":35.176585,"lng":126.828242},
{"title":"제1풍영정","location":"월곡동","lat":35.17451,"lng":126.812421},
{"title":"제2풍영정","location":"운남동","lat":35.177154,"lng":126.813321},
{"title":"신가2","location":"신가동","lat":35.184856,"lng":126.841376},
{"title":"가온","location":"신가동","lat":35.185762,"lng":126.832012},
{"title":"신가","location":"신가동","lat":35.184726,"lng":126.832129},
{"title":"천사","location":"신가동","lat":35.184017,"lng":126.834517},
{"title":"선광","location":"신가동","lat":35.183146,"lng":126.836837},
{"title":"아람","location":"신창동","lat":35.186193,"lng":126.837449},
{"title":"쉼목","location":"신가동","lat":35.187477,"lng":126.836785},
{"title":"맑은샘","location":"월곡동","lat":35.17794,"lng":126.809402},
{"title":"야호숲","location":"월곡동","lat":35.173388,"lng":126.810754},
{"title":"풍영정천","location":"운남동","lat":35.177946,"lng":126.814155},
{"title":"목련무지개","location":"운남동","lat":35.177823,"lng":126.816099},
{"title":"방동","location":"운남동","lat":35.173676,"lng":126.815965},
{"title":"기쁨","location":"월곡동","lat":35.170384,"lng":126.810641},
{"title":"신가","location":"신가동","lat":35.182656,"lng":126.827883},
{"title":"운남","location":"운남동","lat":35.169419,"lng":126.817346},
{"title":"영산강대상","location":"쌍암동","lat":35.209288,"lng":126.851911},
{"title":"옥동1","location":"옥동","lat":35.125832,"lng":126.761382},
{"title":"가족","location":"신창동","lat":35.198439,"lng":126.838893},
{"title":"역사","location":"신창동","lat":35.194427,"lng":126.845057},
{"title":"생태","location":"신창동","lat":35.194003,"lng":126.835931},
{"title":"가족","location":"신창동","lat":35.199208,"lng":126.838183},
{"title":"용수","location":"신창동","lat":35.19669,"lng":126.841967},
{"title":"생태","location":"신창동","lat":35.194018,"lng":126.834428},
{"title":"솔솔","location":"신창동","lat":35.193396,"lng":126.838255},
{"title":"초록","location":"신가동","lat":35.18883,"lng":126.834876},
{"title":"그린나래","location":"신창동","lat":35.189082,"lng":126.838159},
{"title":"솔무","location":"장덕동","lat":35.198779,"lng":126.815653},
{"title":"신완","location":"장덕동","lat":35.198056,"lng":126.814272},
{"title":"잿등","location":"장덕동","lat":35.194024,"lng":126.812794},
{"title":"장덕","location":"장덕동","lat":35.187566,"lng":126.813381},
{"title":"원당산","location":"장덕동","lat":35.19306,"lng":126.821296},
{"title":"성덕","location":"장덕동","lat":35.193749,"lng":126.818196},
{"title":"수완호수","location":"장덕동","lat":35.187949,"lng":126.820166},
{"title":"풍영정천변길","location":"수완동","lat":35.185279,"lng":126.817137},
{"title":"완동","location":"수완동","lat":35.199382,"lng":126.827591},
{"title":"수문1","location":"수완동","lat":35.195707,"lng":126.832976},
{"title":"고래실","location":"수완동","lat":35.195363,"lng":126.829655},
{"title":"너른배미","location":"수완동","lat":35.193484,"lng":126.827176},
{"title":"은빛","location":"수완동","lat":35.187949,"lng":126.825979},
{"title":"아름","location":"신가동","lat":35.184557,"lng":126.825868},
{"title":"라온","location":"산월동","lat":35.211699,"lng":126.846961},
{"title":"첨단강변","location":"산월동","lat":35.211662,"lng":126.850903},
{"title":"월봉","location":"산월동","lat":35.208547,"lng":126.846934},
{"title":"경암","location":"하남동","lat":35.179604,"lng":126.800859},
{"title":"역산","location":"산정동","lat":35.169465,"lng":126.800356},
{"title":"장수천","location":"산정동","lat":35.175959,"lng":126.802889},
{"title":"한우물","location":"하남동","lat":35.177846,"lng":126.796366},
{"title":"경암","location":"하남동","lat":35.178113,"lng":126.802568},
{"title":"따사로움","location":"산정동","lat":35.174206,"lng":126.799937},
{"title":"부엉","location":"산정동","lat":35.174213,"lng":126.801872},
{"title":"역산","location":"산정동","lat":35.170097,"lng":126.800394},
{"title":"옥동2","location":"옥동","lat":35.125316,"lng":126.763062},
{"title":"새골풀","location":"장덕동","lat":35.200794,"lng":126.812968},
{"title":"고실","location":"장덕동","lat":35.201014,"lng":126.81673},
{"title":"신완","location":"장덕동","lat":35.198243,"lng":126.812666},
{"title":"꽃방울","location":"장덕동","lat":35.196658,"lng":126.818089},
{"title":"잿등","location":"장덕동","lat":35.19358,"lng":126.813505},
{"title":"우주선","location":"장덕동","lat":35.19179,"lng":126.813109},
{"title":"보물선","location":"장덕동","lat":35.19333,"lng":126.816083},
{"title":"골옷","location":"장덕동","lat":35.189801,"lng":126.811749},
{"title":"장덕","location":"장덕동","lat":35.187943,"lng":126.813749},
{"title":"성덕","location":"장덕동","lat":35.188007,"lng":126.816605},
{"title":"해님","location":"흑석동","lat":35.18313,"lng":126.813191},
{"title":"장자울","location":"흑석동","lat":35.181321,"lng":126.81042},
{"title":"버들","location":"신가동","lat":35.181622,"lng":126.816752},
{"title":"솔빛","location":"왕버들로","lat":35.200789,"lng":126.822659},
{"title":"수완","location":"수완동","lat":35.198617,"lng":126.82474},
{"title":"해솔","location":"수완동","lat":35.192783,"lng":126.824698},
{"title":"솟대","location":"수완동","lat":35.192635,"lng":126.831013},
{"title":"동심","location":"수완동","lat":35.189306,"lng":126.830906},
{"title":"새터","location":"수완동","lat":35.188679,"lng":126.830225},
{"title":"은빛","location":"수완동","lat":35.186619,"lng":126.825886},
{"title":"아름","location":"신가동","lat":35.184825,"lng":126.823042},
{"title":"성곽","location":"신가동","lat":35.181145,"lng":126.820494},
{"title":"선운","location":"선암동","lat":35.14595,"lng":126.773579},
{"title":"북두칠성","location":"선암동","lat":35.147605,"lng":126.771664},
{"title":"우주","location":"선암동","lat":35.146378,"lng":126.775354},
{"title":"무지개","location":"선암동","lat":35.14652,"lng":126.778553},
{"title":"풍물","location":"선암동","lat":35.150298,"lng":126.776147},
{"title":"선운소공원","location":"선암동","lat":35.148721,"lng":126.771813},
{"title":"송산","location":"송산동","lat":35.160084,"lng":126.735996},
{"title":"천하","location":"용동","lat":35.130954,"lng":126.751466},
{"title":"하신","location":"하남동","lat":35.18801,"lng":126.797158},
{"title":"방림1","location":"방림동","lat":35.132447,"lng":126.916955},
{"title":"봉선","location":"주월동","lat":35.132236,"lng":126.903833},
{"title":"월산1","location":"월산동","lat":35.1466,"lng":126.890739},
{"title":"월산2","location":"월산동","lat":35.139226,"lng":126.894006},
{"title":"천변","location":"방림동","lat":35.1314,"lng":126.92558},
{"title":"세은3","location":"백운동","lat":35.135342,"lng":126.897162},
{"title":"세은4","location":"월산동","lat":35.136495,"lng":126.89587},
{"title":"세은5","location":"월산동","lat":35.136694,"lng":126.893469},
{"title":"봉선","location":"봉선동","lat":35.130342,"lng":126.911743},
{"title":"유안","location":"봉선동","lat":35.123466,"lng":126.916591},
{"title":"방죽","location":"봉선동","lat":35.123524,"lng":126.912229},
{"title":"대성","location":"진월동","lat":35.115621,"lng":126.899226},
{"title":"방림2","location":"방림동","lat":35.130795,"lng":126.914635},
{"title":"방림3","location":"방림동","lat":35.129787,"lng":126.916716},
{"title":"봉선1","location":"봉선동","lat":35.130231,"lng":126.908469},
{"title":"봉선2","location":"봉선동","lat":35.128626,"lng":126.912421},
{"title":"봉선3","location":"봉선동","lat":35.127221,"lng":126.908486},
{"title":"현대","location":"진월동","lat":35.116541,"lng":126.899301},
{"title":"향등","location":"행암동","lat":35.100576,"lng":126.878811},
{"title":"풀빛","location":"노대동","lat":35.108637,"lng":126.901811},
{"title":"하늘빛","location":"노대동","lat":35.108309,"lng":126.906528},
{"title":"물빛","location":"노대동","lat":35.10402,"lng":126.904871},
{"title":"달맞이","location":"노대동","lat":35.106545,"lng":126.905473},
{"title":"쟁이마당","location":"노대동","lat":35.105534,"lng":126.908931},
{"title":"조각배","location":"노대동","lat":35.102893,"lng":126.901616},
{"title":"봉선2","location":"봉선동","lat":35.119447,"lng":126.917425},
{"title":"봉선2지구","location":"봉선동","lat":35.121908,"lng":126.915895},
{"title":"풀향기","location":"행암동","lat":35.097786,"lng":126.883219},
{"title":"늘품","location":"행암동","lat":35.103547,"lng":126.890608},
{"title":"향등마을","location":"행암동","lat":35.101745,"lng":126.880086},
{"title":"해마루","location":"행암동","lat":35.102706,"lng":126.885521},
{"title":"천변길","location":"행암동","lat":35.100172,"lng":126.88634},
{"title":"대촌","location":"지석동","lat":35.08418,"lng":126.829402},
{"title":"진월지구1","location":"노대동","lat":35.102311,"lng":126.904943},
{"title":"양림1","location":"양림동","lat":35.142526,"lng":126.915703},
{"title":"조봉","location":"봉선동","lat":35.123364,"lng":126.907634},
{"title":"주월","location":"주월동","lat":35.130898,"lng":126.903983},
{"title":"불로","location":"봉선동","lat":35.119947,"lng":126.911105},
{"title":"서동","location":"서동","lat":35.145184,"lng":126.906728},
{"title":"5·18 기념","location":"쌍촌동","lat":35.152035,"lng":126.858156},
{"title":"시민","location":"치평동","lat":35.153576,"lng":126.840947},
{"title":"마재","location":"금호동","lat":35.134978,"lng":126.854113},
{"title":"신암","location":"풍암동","lat":35.124823,"lng":126.879778},
{"title":"풍암","location":"풍암동","lat":35.1535762,"lng":126.885235},
{"title":"상무2지구근린1","location":"유촌동","lat":35.1307905,"lng":126.854249},
{"title":"상무2지구근린2","location":"쌍촌동","lat":35.161806,"lng":126.8797783},
{"title":"상무2지구근린3","location":"쌍촌동","lat":35.161629,"lng":126.861471},
{"title":"상무2지구근린4","location":"쌍촌동","lat":35.152035,"lng":126.863733},
{"title":"상무4지구근린1","location":"유촌동","lat":35.162781,"lng":126.859732},
{"title":"상록","location":"농성동311-1","lat":35.154945,"lng":126.888766},
{"title":"평화","location":"치평동","lat":35.1600765,"lng":126.851643},
{"title":"죽림","location":"동천동","lat":35.171703,"lng":126.858716},
{"title":"유적","location":"동천동","lat":35.171703,"lng":126.858716},
{"title":"천변","location":"양동","lat":35.155851,"lng":126.900629},
{"title":"상무","location":"쌍촌동","lat":35.147881,"lng":126.854802},
{"title":"전평제","location":"매월동","lat":35.116032,"lng":126.848302},
{"title":"농성","location":"농성동","lat":35.148223,"lng":126.887055},
{"title":"내방","location":"내방동","lat":35.153199,"lng":126.872323},
{"title":"쌍촌","location":"쌍촌동","lat":35.152825,"lng":126.891098},
{"title":"꿈마당","location":"화정동","lat":35.140945,"lng":126.876872},
{"title":"염주","location":"화정동","lat":35.138162,"lng":126.875044},
{"title":"콩콩","location":"화정동","lat":35.143348,"lng":126.876463},
{"title":"효행","location":"화정동","lat":35.144257,"lng":126.872527},
{"title":"화방","location":"화정동","lat":35.140983,"lng":126.874497},
{"title":"염주","location":"화정동","lat":35.141574,"lng":126.879283},
{"title":"주동","location":"화정동","lat":35.140945,"lng":126.884679},
{"title":"쌍학","location":"쌍촌동","lat":35.152035,"lng":126.8764629},
{"title":"효광","location":"쌍촌동","lat":35.152035,"lng":126.8631693},
{"title":"맛고을","location":"화정동","lat":35.142695,"lng":126.872234},
{"title":"백일","location":"화정동","lat":35.143864,"lng":126.867287},
{"title":"새싹","location":"쌍촌동","lat":35.143866,"lng":126.869463},
{"title":"우정","location":"화정동","lat":35.137316,"lng":126.872041},
{"title":"믿음","location":"쌍촌동","lat":35.145146,"lng":126.860862},
{"title":"반달","location":"금호동","lat":35.136461,"lng":126.857432},
{"title":"사랑","location":"쌍촌동","lat":35.141162,"lng":126.860803},
{"title":"소망","location":"쌍촌동","lat":35.143638,"lng":126.858888},
{"title":"푸름","location":"금호동","lat":35.137383,"lng":126.861238},
{"title":"해님","location":"금호동","lat":35.140622,"lng":126.857533},
{"title":"농성공단","location":"농성동","lat":35.160056,"lng":126.884847},
{"title":"풍암","location":"풍암동","lat":35.118332,"lng":126.867899},
{"title":"느티나무","location":"치평동","lat":35.159801,"lng":126.846567},
{"title":"무지개","location":"쌍촌동","lat":35.153758,"lng":126.859916},
{"title":"오월","location":"쌍촌동","lat":35.155927,"lng":126.862207},
{"title":"운천","location":"치평동","lat":35.1542791,"lng":126.846623},
{"title":"장수","location":"치평동","lat":35.156846,"lng":126.843696},
{"title":"치평","location":"치평동","lat":35.149651,"lng":126.8603979},
{"title":"해오리","location":"치평동","lat":35.146361,"lng":126.843714},
{"title":"개나리","location":"풍암동","lat":35.120501,"lng":126.877528},
{"title":"금당","location":"풍암동","lat":35.127677,"lng":126.883968},
{"title":"금호","location":"금호동","lat":35.129224,"lng":126.857342},
{"title":"달맞이","location":"금호동","lat":35.123794,"lng":126.859225},
{"title":"당산","location":"풍암동","lat":35.123995,"lng":126.881616},
{"title":"살구","location":"풍암동","lat":35.121028,"lng":126.882554},
{"title":"새롬","location":"풍암동","lat":35.122905,"lng":126.868453},
{"title":"운리","location":"풍암동","lat":35.1227403,"lng":126.864302},
{"title":"희망","location":"풍암동","lat":35.123787,"lng":126.876195},
{"title":"금부","location":"금호동","lat":35.134508,"lng":126.857329},
{"title":"풍금","location":"금호동","lat":35.132975,"lng":126.860627},
{"title":"상일","location":"쌍촌동","lat":35.159544,"lng":126.865365},
{"title":"서광","location":"쌍촌동","lat":35.157198,"lng":126.864612},
{"title":"유촌","location":"쌍촌동","lat":35.160925,"lng":126.857859},
{"title":"극락","location":"유촌동","lat":35.165255,"lng":126.858317},
{"title":"유덕","location":"유촌동","lat":35.164624,"lng":126.862005},
{"title":"새누리","location":"풍암동","lat":35.121169,"lng":126.863672},
{"title":"햇살","location":"금호동","lat":35.122109,"lng":126.859966},
{"title":"화개","location":"금호동","lat":35.124099,"lng":126.856268},
{"title":"원마륵","location":"치평동","lat":35.144901,"lng":126.841092},
{"title":"백구","location":"동천동","lat":35.171703,"lng":126.858716},
{"title":"자미","location":"동천동","lat":35.171997,"lng":126.858773},
{"title":"화추","location":"동천동","lat":35.171703,"lng":126.858716},
{"title":"강나루","location":"동천동","lat":35.171703,"lng":126.858716},
{"title":"경열","location":"농성동","lat":35.153118,"lng":126.891822},
{"title":"양1동 1","location":"양동","lat":35.155326,"lng":126.898832},
{"title":"양1동 2","location":"양동","lat":35.1544522,"lng":126.899136},
{"title":"덕흥동 1","location":"덕흥동","lat":35.166008,"lng":126.837597},
{"title":"덕흥동 2","location":"덕흥동","lat":35.166619,"lng":126.837582},
{"title":"농성1동","location":"농성동","lat":35.156464,"lng":126.891501},
{"title":"유촌동","location":"유촌동","lat":35.165895,"lng":126.852564},
{"title":"농성1동 2","location":"농성동","lat":35.154566,"lng":126.887912},
{"title":"서창동 1","location":"서창동","lat":35.107357,"lng":126.822745},
{"title":"U대회1","location":"화정동","lat":35.107357,"lng":126.822745},
{"title":"행자","location":"동천동","lat":35.171703,"lng":126.858716},
{"title":"U대회","location":"화정동","lat":35.144733,"lng":126.885183}]